rst:0x1 (POWERON_RESET),boot:0x13 (SPI_FAST_FLASH_BOOT)
configsip: 0, SPIWP:0xee
clk_drv:0x00,q_drv:0x00,d_drv:0x00,cs0_drv:0x00,hd_drv:0x00,wp_drv:0x00
mode:DIO, clock div:1
load:0x3fff0018,len:4
load:0x3fff001c,len:1044
load:0x40078000,len:8896
load:0x40080400,len:5816
entry 0x400806ac
Starting up......
Target Board is ESP32 Dev Module
Mavlink BT In
Az = 90.00	 El = 0.00	 hmHdg = 90.00
pntAz = 90 El = 0.00 LastGoodpntAz = 90 LastGoodEl = 0 hmHdg = 90.00 azPWM = 1500 elPWM = 2300
Heading_Source = Tracker's Own Compass
----- Compass Found -----
mag:	-17	201	-432	--------------------------

Display tracker heading for 20 seconds
Heading = 94
Heading = 95
Heading = 96
Heading = 97
Heading = 97
Heading = 97
Heading = 97
Heading = 97
Heading = 97
Heading = 96
Heading = 96
Heading = 95
Heading = 95
Heading = 95
Heading = 95
Heading = 95
Heading = 96
Heading = 97
Heading = 97
Bluetooth connected!
ets Jun  8 2016 00:22:57

rst:0x1 (POWERON_RESET),boot:0x13 (SPI_FAST_FLASH_BOOT)
configsip: 0, SPIWP:0xee
clk_drv:0x00,q_drv:0x00,d_drv:0x00,cs0_drv:0x00,hd_drv:0x00,wp_drv:0x00
mode:DIO, clock div:1
load:0x3fff0018,len:4
load:0x3fff001c,len:1044
load:0x40078000,len:8896
load:0x40080400,len:5816
entry 0x400806ac
Starting up......
Target Board is ESP32 Dev Module
Mavlink BT In
Az = 90.00	 El = 0.00	 hmHdg = 90.00
pntAz = 90 El = 0.00 LastGoodpntAz = 90 LastGoodEl = 0 hmHdg = 90.00 azPWM = 1500 elPWM = 2300
Heading_Source = Tracker's Own Compass
----- Compass Found -----
mag:	-30	207	-445	--------------------------

Display tracker heading for 20 seconds
Heading = 98
Heading = 89
Heading = 89
Heading = 90
Heading = 91
Heading = 91
Heading = 91
Heading = 91
Heading = 91
Heading = 90
Heading = 89
Heading = 89
Heading = 89
Heading = 90
Heading = 89
Heading = 91
Heading = 90
Heading = 91
Heading = 91
Bluetooth connected!
Mavlink in #0 Heartbeat: ap_type=0  ap_autopilot=8  ap_base_mode=192 ap_custom_mode=0  ap_system_status=4  ap_mavlink_version=3
 hb_count=1
Mavlink in #0 Heartbeat: ap_type=0  ap_autopilot=8  ap_base_mode=192 ap_custom_mode=0  ap_system_status=4  ap_mavlink_version=3
 hb_count=2
Mavlink in #0 Heartbeat: ap_type=0  ap_autopilot=8  ap_base_mode=192 ap_custom_mode=0  ap_system_status=4  ap_mavlink_version=3
 hb_count=3
hbGood=true
Mavlink in #24 GPS_RAW_INT: ap_fixtype=3 3D Lock  sats visible=6  GPS status=63  latitude=47.0692832  longitude=-0.8840489  gps alt amsl20  eph (hdop)=0  epv (vdop)=0  vel=655.3  cog=655.3
Mavlink in #0 Heartbeat: ap_type=0  ap_autopilot=8  ap_base_mode=192 ap_custom_mode=0  ap_system_status=4  ap_mavlink_version=3
gpsGood=true
Mavlink in #33 GPS Int:  ap_lat=47.069283 ap_lon=-0.884049 ap_amsl=20 ap_alt_ag=20.0 ap_vx=0.0 ap_vy=0.0 ap_vz=0.0 ap_hdg=655.3
GPS lock good! Push set-home button anytime to start tracking.
Mavlink in #24 GPS_RAW_INT: ap_fixtype=3 3D Lock  sats visible=6  GPS status=63  latitude=47.0692832  longitude=-0.8840486  gps alt amsl20  eph (hdop)=0  epv (vdop)=0  vel=655.3  cog=655.3
Mavlink in #0 Heartbeat: ap_type=0  ap_autopilot=8  ap_base_mode=192 ap_custom_mode=0  ap_system_status=4  ap_mavlink_version=3
Mavlink in #33 GPS Int:  ap_lat=47.069283 ap_lon=-0.884047 ap_amsl=19 ap_alt_ag=19.0 ap_vx=0.0 ap_vy=0.0 ap_vz=0.0 ap_hdg=655.3
Mavlink in #24 GPS_RAW_INT: ap_fixtype=3 3D Lock  sats visible=6  GPS status=63  latitude=47.0692832  longitude=-0.8840471  gps alt amsl19  eph (hdop)=0  epv (vdop)=0  vel=655.3  cog=655.3
Mavlink in #33 GPS Int:  ap_lat=47.069283 ap_lon=-0.884045 ap_amsl=20 ap_alt_ag=20.0 ap_vx=0.0 ap_vy=0.0 ap_vz=0.0 ap_hdg=655.3
Mavlink in #24 GPS_RAW_INT: ap_fixtype=3 3D Lock  sats visible=6  GPS status=63  latitude=47.0692832  longitude=-0.8840449  gps alt amsl20  eph (hdop)=0  epv (vdop)=0  vel=655.3  cog=655.3
Mavlink in #0 Heartbeat: ap_type=0  ap_autopilot=8  ap_base_mode=192 ap_custom_mode=0  ap_system_status=4  ap_mavlink_version=3
Mavlink in #33 GPS Int:  ap_lat=47.069280 ap_lon=-0.884044 ap_amsl=20 ap_alt_ag=20.0 ap_vx=0.0 ap_vy=0.0 ap_vz=0.0 ap_hdg=655.3
Mavlink in #24 GPS_RAW_INT: ap_fixtype=3 3D Lock  sats visible=6  GPS status=63  latitude=47.0692800  longitude=-0.8840438  gps alt amsl20  eph (hdop)=0  epv (vdop)=0  vel=655.3  cog=655.3
Mavlink in #0 Heartbeat: ap_type=0  ap_autopilot=8  ap_base_mode=192 ap_custom_mode=0  ap_system_status=4  ap_mavlink_version=3
Mavlink in #33 GPS Int:  ap_lat=47.069280 ap_lon=-0.884045 ap_amsl=19 ap_alt_ag=19.0 ap_vx=0.0 ap_vy=0.0 ap_vz=0.0 ap_hdg=655.3
Mavlink in #24 GPS_RAW_INT: ap_fixtype=3 3D Lock  sats visible=6  GPS status=63  latitude=47.0692800  longitude=-0.8840446  gps alt amsl19  eph (hdop)=0  epv (vdop)=0  vel=655.3  cog=655.3
Mavlink in #0 Heartbeat: ap_type=0  ap_autopilot=8  ap_base_mode=192 ap_custom_mode=0  ap_system_status=4  ap_mavlink_version=3
Mavlink in #33 GPS Int:  ap_lat=47.069280 ap_lon=-0.884044 ap_amsl=20 ap_alt_ag=20.0 ap_vx=0.0 ap_vy=0.0 ap_vz=0.0 ap_hdg=655.3
Mavlink in #24 GPS_RAW_INT: ap_fixtype=3 3D Lock  sats visible=6  GPS status=63  latitude=47.0692800  longitude=-0.8840440  gps alt amsl20  eph (hdop)=0  epv (vdop)=0  vel=655.3  cog=655.3
Mavlink in #0 Heartbeat: ap_type=0  ap_autopilot=8  ap_base_mode=192 ap_custom_mode=0  ap_system_status=4  ap_mavlink_version=3
Mavlink in #33 GPS Int:  ap_lat=47.069280 ap_lon=-0.884045 ap_amsl=19 ap_alt_ag=19.0 ap_vx=0.0 ap_vy=0.0 ap_vz=0.0 ap_hdg=655.3
Mavlink in #24 GPS_RAW_INT: ap_fixtype=3 3D Lock  sats visible=6  GPS status=63  latitude=47.0692800  longitude=-0.8840450  gps alt amsl19  eph (hdop)=0  epv (vdop)=0  vel=655.3  cog=655.3
Mavlink in #33 GPS Int:  ap_lat=47.069280 ap_lon=-0.884046 ap_amsl=19 ap_alt_ag=19.0 ap_vx=0.0 ap_vy=0.0 ap_vz=0.0 ap_hdg=655.3
Mavlink in #24 GPS_RAW_INT: ap_fixtype=3 3D Lock  sats visible=6  GPS status=63  latitude=47.0692800  longitude=-0.8840459  gps alt amsl19  eph (hdop)=0  epv (vdop)=0  vel=655.3  cog=655.3
Mavlink in #0 Heartbeat: ap_type=0  ap_autopilot=8  ap_base_mode=192 ap_custom_mode=0  ap_system_status=4  ap_mavlink_version=3
Mavlink in #33 GPS Int:  ap_lat=47.069280 ap_lon=-0.884046 ap_amsl=19 ap_alt_ag=19.0 ap_vx=0.0 ap_vy=0.0 ap_vz=0.0 ap_hdg=655.3
Mavlink in #24 GPS_RAW_INT: ap_fixtype=3 3D Lock  sats visible=6  GPS status=63  latitude=47.0692800  longitude=-0.8840463  gps alt amsl19  eph (hdop)=0  epv (vdop)=0  vel=655.3  cog=655.3
Mavlink in #0 Heartbeat: ap_type=0  ap_autopilot=8  ap_base_mode=192 ap_custom_mode=0  ap_system_status=4  ap_mavlink_version=3
Mavlink in #33 GPS Int:  ap_lat=47.069280 ap_lon=-0.884048 ap_amsl=19 ap_alt_ag=19.0 ap_vx=0.0 ap_vy=0.0 ap_vz=0.0 ap_hdg=655.3
Mavlink in #24 GPS_RAW_INT: ap_fixtype=3 3D Lock  sats visible=6  GPS status=63  latitude=47.0692800  longitude=-0.8840479  gps alt amsl19  eph (hdop)=0  epv (vdop)=0  vel=655.3  cog=655.3
Mavlink in #0 Heartbeat: ap_type=0  ap_autopilot=8  ap_base_mode=192 ap_custom_mode=0  ap_system_status=4  ap_mavlink_version=3
Mavlink in #33 GPS Int:  ap_lat=47.069280 ap_lon=-0.884049 ap_amsl=19 ap_alt_ag=19.0 ap_vx=0.0 ap_vy=0.0 ap_vz=0.0 ap_hdg=655.3
Mavlink in #24 GPS_RAW_INT: ap_fixtype=3 3D Lock  sats visible=6  GPS status=63  latitude=47.0692800  longitude=-0.8840489  gps alt amsl19  eph (hdop)=0  epv (vdop)=0  vel=655.3  cog=655.3
Mavlink in #0 Heartbeat: ap_type=0  ap_autopilot=8  ap_base_mode=192 ap_custom_mode=0  ap_system_status=4  ap_mavlink_version=3
Mavlink in #33 GPS Int:  ap_lat=47.069280 ap_lon=-0.884050 ap_amsl=19 ap_alt_ag=19.0 ap_vx=0.0 ap_vy=0.0 ap_vz=0.0 ap_hdg=655.3
Mavlink in #24 GPS_RAW_INT: ap_fixtype=3 3D Lock  sats visible=6  GPS status=63  latitude=47.0692800  longitude=-0.8840496  gps alt amsl19  eph (hdop)=0  epv (vdop)=0  vel=655.3  cog=655.3
Mavlink in #33 GPS Int:  ap_lat=47.069280 ap_lon=-0.884050 ap_amsl=19 ap_alt_ag=19.0 ap_vx=0.0 ap_vy=0.0 ap_vz=0.0 ap_hdg=655.3
Mavlink in #24 GPS_RAW_INT: ap_fixtype=3 3D Lock  sats visible=6  GPS status=63  latitude=47.0692800  longitude=-0.8840498  gps alt amsl19  eph (hdop)=0  epv (vdop)=0  vel=655.3  cog=655.3
Mavlink in #0 Heartbeat: ap_type=0  ap_autopilot=8  ap_base_mode=192 ap_custom_mode=0  ap_system_status=4  ap_mavlink_version=3
Mavlink in #33 GPS Int:  ap_lat=47.069280 ap_lon=-0.884051 ap_amsl=19 ap_alt_ag=19.0 ap_vx=0.0 ap_vy=0.0 ap_vz=0.0 ap_hdg=655.3
Mavlink in #24 GPS_RAW_INT: ap_fixtype=3 3D Lock  sats visible=6  GPS status=63  latitude=47.0692800  longitude=-0.8840512  gps alt amsl19  eph (hdop)=0  epv (vdop)=0  vel=655.3  cog=655.3
Mavlink in #0 Heartbeat: ap_type=0  ap_autopilot=8  ap_base_mode=192 ap_custom_mode=0  ap_system_status=4  ap_mavlink_version=3
Mavlink in #33 GPS Int:  ap_lat=47.069280 ap_lon=-0.884053 ap_amsl=19 ap_alt_ag=19.0 ap_vx=0.0 ap_vy=0.0 ap_vz=0.0 ap_hdg=655.3
Mavlink in #24 GPS_RAW_INT: ap_fixtype=3 3D Lock  sats visible=6  GPS status=63  latitude=47.0692800  longitude=-0.8840532  gps alt amsl19  eph (hdop)=0  epv (vdop)=0  vel=655.3  cog=655.3
Mavlink in #0 Heartbeat: ap_type=0  ap_autopilot=8  ap_base_mode=192 ap_custom_mode=0  ap_system_status=4  ap_mavlink_version=3
Mavlink in #33 GPS Int:  ap_lat=47.069280 ap_lon=-0.884054 ap_amsl=19 ap_alt_ag=19.0 ap_vx=0.0 ap_vy=0.0 ap_vz=0.0 ap_hdg=655.3
Mavlink in #24 GPS_RAW_INT: ap_fixtype=3 3D Lock  sats visible=6  GPS status=63  latitude=47.0692800  longitude=-0.8840545  gps alt amsl19  eph (hdop)=0  epv (vdop)=0  vel=655.3  cog=655.3
Mavlink in #0 Heartbeat: ap_type=0  ap_autopilot=8  ap_base_mode=192 ap_custom_mode=0  ap_system_status=4  ap_mavlink_version=3
Mavlink in #33 GPS Int:  ap_lat=47.069280 ap_lon=-0.884055 ap_amsl=19 ap_alt_ag=19.0 ap_vx=0.0 ap_vy=0.0 ap_vz=0.0 ap_hdg=655.3
Mavlink in #24 GPS_RAW_INT: ap_fixtype=3 3D Lock  sats visible=6  GPS status=63  latitude=47.0692800  longitude=-0.8840550  gps alt amsl19  eph (hdop)=0  epv (vdop)=0  vel=655.3  cog=655.3
Mavlink in #33 GPS Int:  ap_lat=47.069280 ap_lon=-0.884056 ap_amsl=19 ap_alt_ag=19.0 ap_vx=0.0 ap_vy=0.0 ap_vz=0.0 ap_hdg=655.3
Mavlink in #24 GPS_RAW_INT: ap_fixtype=3 3D Lock  sats visible=6  GPS status=63  latitude=47.0692800  longitude=-0.8840559  gps alt amsl19  eph (hdop)=0  epv (vdop)=0  vel=655.3  cog=655.3
Mavlink in #0 Heartbeat: ap_type=0  ap_autopilot=8  ap_base_mode=192 ap_custom_mode=0  ap_system_status=4  ap_mavlink_version=3
Mavlink in #33 GPS Int:  ap_lat=47.069274 ap_lon=-0.884056 ap_amsl=19 ap_alt_ag=19.0 ap_vx=0.0 ap_vy=0.0 ap_vz=0.0 ap_hdg=655.3
Mavlink in #24 GPS_RAW_INT: ap_fixtype=3 3D Lock  sats visible=6  GPS status=63  latitude=47.0692736  longitude=-0.8840558  gps alt amsl19  eph (hdop)=0  epv (vdop)=0  vel=655.3  cog=655.3
Mavlink in #0 Heartbeat: ap_type=0  ap_autopilot=8  ap_base_mode=192 ap_custom_mode=0  ap_system_status=4  ap_mavlink_version=3
Mavlink in #33 GPS Int:  ap_lat=47.069274 ap_lon=-0.884057 ap_amsl=19 ap_alt_ag=19.0 ap_vx=0.0 ap_vy=0.0 ap_vz=0.0 ap_hdg=655.3
Mavlink in #24 GPS_RAW_INT: ap_fixtype=3 3D Lock  sats visible=6  GPS status=63  latitude=47.0692736  longitude=-0.8840567  gps alt amsl19  eph (hdop)=0  epv (vdop)=0  vel=655.3  cog=655.3
Mavlink in #0 Heartbeat: ap_type=0  ap_autopilot=8  ap_base_mode=192 ap_custom_mode=0  ap_system_status=4  ap_mavlink_version=3
Mavlink in #33 GPS Int:  ap_lat=47.069274 ap_lon=-0.884058 ap_amsl=19 ap_alt_ag=19.0 ap_vx=0.0 ap_vy=0.0 ap_vz=0.0 ap_hdg=655.3
Mavlink in #24 GPS_RAW_INT: ap_fixtype=3 3D Lock  sats visible=6  GPS status=63  latitude=47.0692736  longitude=-0.8840581  gps alt amsl19  eph (hdop)=0  epv (vdop)=0  vel=655.3  cog=655.3
Mavlink in #0 Heartbeat: ap_type=0  ap_autopilot=8  ap_base_mode=192 ap_custom_mode=0  ap_system_status=4  ap_mavlink_version=3
Mavlink in #33 GPS Int:  ap_lat=47.069274 ap_lon=-0.884060 ap_amsl=19 ap_alt_ag=19.0 ap_vx=0.0 ap_vy=0.0 ap_vz=0.0 ap_hdg=655.3
Mavlink in #24 GPS_RAW_INT: ap_fixtype=3 3D Lock  sats visible=6  GPS status=63  latitude=47.0692736  longitude=-0.8840596  gps alt amsl19  eph (hdop)=0  epv (vdop)=0  vel=655.3  cog=655.3
Mavlink in #33 GPS Int:  ap_lat=47.069274 ap_lon=-0.884062 ap_amsl=19 ap_alt_ag=19.0 ap_vx=0.0 ap_vy=0.0 ap_vz=0.0 ap_hdg=655.3
Mavlink in #24 GPS_RAW_INT: ap_fixtype=3 3D Lock  sats visible=6  GPS status=63  latitude=47.0692736  longitude=-0.8840617  gps alt amsl19  eph (hdop)=0  epv (vdop)=0  vel=655.3  cog=655.3
Mavlink in #0 Heartbeat: ap_type=0  ap_autopilot=8  ap_base_mode=192 ap_custom_mode=0  ap_system_status=4  ap_mavlink_version=3
Mavlink in #33 GPS Int:  ap_lat=47.069274 ap_lon=-0.884063 ap_amsl=19 ap_alt_ag=19.0 ap_vx=0.0 ap_vy=0.0 ap_vz=0.0 ap_hdg=655.3
Mavlink in #24 GPS_RAW_INT: ap_fixtype=3 3D Lock  sats visible=6  GPS status=63  latitude=47.0692736  longitude=-0.8840626  gps alt amsl19  eph (hdop)=0  epv (vdop)=0  vel=655.3  cog=655.3
Mavlink in #0 Heartbeat: ap_type=0  ap_autopilot=8  ap_base_mode=192 ap_custom_mode=0  ap_system_status=4  ap_mavlink_version=3
Mavlink in #33 GPS Int:  ap_lat=47.069274 ap_lon=-0.884065 ap_amsl=19 ap_alt_ag=19.0 ap_vx=0.0 ap_vy=0.0 ap_vz=0.0 ap_hdg=655.3
Mavlink in #24 GPS_RAW_INT: ap_fixtype=3 3D Lock  sats visible=6  GPS status=63  latitude=47.0692736  longitude=-0.8840647  gps alt amsl19  eph (hdop)=0  epv (vdop)=0  vel=655.3  cog=655.3
Mavlink in #0 Heartbeat: ap_type=0  ap_autopilot=8  ap_base_mode=192 ap_custom_mode=0  ap_system_status=4  ap_mavlink_version=3
Mavlink in #33 GPS Int:  ap_lat=47.069274 ap_lon=-0.884066 ap_amsl=19 ap_alt_ag=19.0 ap_vx=0.0 ap_vy=0.0 ap_vz=0.0 ap_hdg=655.3
Mavlink in #24 GPS_RAW_INT: ap_fixtype=3 3D Lock  sats visible=6  GPS status=63  latitude=47.0692736  longitude=-0.8840659  gps alt amsl19  eph (hdop)=0  epv (vdop)=0  vel=655.3  cog=655.3
Mavlink in #0 Heartbeat: ap_type=0  ap_autopilot=8  ap_base_mode=192 ap_custom_mode=0  ap_system_status=4  ap_mavlink_version=3
Mavlink in #33 GPS Int:  ap_lat=47.069274 ap_lon=-0.884069 ap_amsl=19 ap_alt_ag=19.0 ap_vx=0.0 ap_vy=0.0 ap_vz=0.0 ap_hdg=655.3
Mavlink in #24 GPS_RAW_INT: ap_fixtype=3 3D Lock  sats visible=6  GPS status=63  latitude=47.0692736  longitude=-0.8840687  gps alt amsl19  eph (hdop)=0  epv (vdop)=0  vel=655.3  cog=655.3
Mavlink in #33 GPS Int:  ap_lat=47.069274 ap_lon=-0.884072 ap_amsl=19 ap_alt_ag=19.0 ap_vx=0.0 ap_vy=0.0 ap_vz=0.0 ap_hdg=655.3
Mavlink in #24 GPS_RAW_INT: ap_fixtype=3 3D Lock  sats visible=6  GPS status=63  latitude=47.0692736  longitude=-0.8840717  gps alt amsl19  eph (hdop)=0  epv (vdop)=0  vel=655.3  cog=655.3
Mavlink in #0 Heartbeat: ap_type=0  ap_autopilot=8  ap_base_mode=192 ap_custom_mode=0  ap_system_status=4  ap_mavlink_version=3
Mavlink in #33 GPS Int:  ap_lat=47.069274 ap_lon=-0.884073 ap_amsl=19 ap_alt_ag=19.0 ap_vx=0.0 ap_vy=0.0 ap_vz=0.0 ap_hdg=655.3
Mavlink in #24 GPS_RAW_INT: ap_fixtype=3 3D Lock  sats visible=6  GPS status=63  latitude=47.0692736  longitude=-0.8840729  gps alt amsl19  eph (hdop)=0  epv (vdop)=0  vel=655.3  cog=655.3
Mavlink in #0 Heartbeat: ap_type=0  ap_autopilot=8  ap_base_mode=192 ap_custom_mode=0  ap_system_status=4  ap_mavlink_version=3
Mavlink in #33 GPS Int:  ap_lat=47.069274 ap_lon=-0.884075 ap_amsl=19 ap_alt_ag=19.0 ap_vx=0.0 ap_vy=0.0 ap_vz=0.0 ap_hdg=655.3
Mavlink in #24 GPS_RAW_INT: ap_fixtype=3 3D Lock  sats visible=6  GPS status=63  latitude=47.0692736  longitude=-0.8840755  gps alt amsl19  eph (hdop)=0  epv (vdop)=0  vel=655.3  cog=655.3
Mavlink in #0 Heartbeat: ap_type=0  ap_autopilot=8  ap_base_mode=192 ap_custom_mode=0  ap_system_status=4  ap_mavlink_version=3
Mavlink in #33 GPS Int:  ap_lat=47.069274 ap_lon=-0.884079 ap_amsl=19 ap_alt_ag=19.0 ap_vx=0.0 ap_vy=0.0 ap_vz=0.0 ap_hdg=655.3
Mavlink in #24 GPS_RAW_INT: ap_fixtype=3 3D Lock  sats visible=6  GPS status=63  latitude=47.0692736  longitude=-0.8840789  gps alt amsl19  eph (hdop)=0  epv (vdop)=0  vel=655.3  cog=655.3
Mavlink in #0 Heartbeat: ap_type=0  ap_autopilot=8  ap_base_mode=192 ap_custom_mode=0  ap_system_status=4  ap_mavlink_version=3
Mavlink in #33 GPS Int:  ap_lat=47.069274 ap_lon=-0.884081 ap_amsl=19 ap_alt_ag=19.0 ap_vx=0.0 ap_vy=0.0 ap_vz=0.0 ap_hdg=655.3
Mavlink in #24 GPS_RAW_INT: ap_fixtype=3 3D Lock  sats visible=6  GPS status=63  latitude=47.0692736  longitude=-0.8840814  gps alt amsl19  eph (hdop)=0  epv (vdop)=0  vel=655.3  cog=655.3
Mavlink in #33 GPS Int:  ap_lat=47.069274 ap_lon=-0.884083 ap_amsl=19 ap_alt_ag=19.0 ap_vx=0.0 ap_vy=0.0 ap_vz=0.0 ap_hdg=655.3
Mavlink in #24 GPS_RAW_INT: ap_fixtype=3 3D Lock  sats visible=6  GPS status=63  latitude=47.0692736  longitude=-0.8840830  gps alt amsl19  eph (hdop)=0  epv (vdop)=0  vel=655.3  cog=655.3
Mavlink in #0 Heartbeat: ap_type=0  ap_autopilot=8  ap_base_mode=192 ap_custom_mode=0  ap_system_status=4  ap_mavlink_version=3
Mavlink in #33 GPS Int:  ap_lat=47.069274 ap_lon=-0.884085 ap_amsl=19 ap_alt_ag=19.0 ap_vx=0.0 ap_vy=0.0 ap_vz=0.0 ap_hdg=655.3
Mavlink in #24 GPS_RAW_INT: ap_fixtype=3 3D Lock  sats visible=6  GPS status=63  latitude=47.0692736  longitude=-0.8840851  gps alt amsl19  eph (hdop)=0  epv (vdop)=0  vel=655.3  cog=655.3
Mavlink in #0 Heartbeat: ap_type=0  ap_autopilot=8  ap_base_mode=192 ap_custom_mode=0  ap_system_status=4  ap_mavlink_version=3
Mavlink in #33 GPS Int:  ap_lat=47.069274 ap_lon=-0.884087 ap_amsl=19 ap_alt_ag=19.0 ap_vx=0.0 ap_vy=0.0 ap_vz=0.0 ap_hdg=655.3
Mavlink in #24 GPS_RAW_INT: ap_fixtype=3 3D Lock  sats visible=6  GPS status=63  latitude=47.0692736  longitude=-0.8840867  gps alt amsl19  eph (hdop)=0  epv (vdop)=0  vel=655.3  cog=655.3
Mavlink in #0 Heartbeat: ap_type=0  ap_autopilot=8  ap_base_mode=192 ap_custom_mode=0  ap_system_status=4  ap_mavlink_version=3
Mavlink in #33 GPS Int:  ap_lat=47.069274 ap_lon=-0.884088 ap_amsl=18 ap_alt_ag=18.0 ap_vx=0.0 ap_vy=0.0 ap_vz=0.0 ap_hdg=655.3
Mavlink in #24 GPS_RAW_INT: ap_fixtype=3 3D Lock  sats visible=6  GPS status=63  latitude=47.0692736  longitude=-0.8840878  gps alt amsl18  eph (hdop)=0  epv (vdop)=0  vel=655.3  cog=655.3
Mavlink in #0 Heartbeat: ap_type=0  ap_autopilot=8  ap_base_mode=192 ap_custom_mode=0  ap_system_status=4  ap_mavlink_version=3
Mavlink in #33 GPS Int:  ap_lat=47.069274 ap_lon=-0.884090 ap_amsl=18 ap_alt_ag=18.0 ap_vx=0.0 ap_vy=0.0 ap_vz=0.0 ap_hdg=655.3
Mavlink in #24 GPS_RAW_INT: ap_fixtype=3 3D Lock  sats visible=6  GPS status=63  latitude=47.0692736  longitude=-0.8840897  gps alt amsl18  eph (hdop)=0  epv (vdop)=0  vel=655.3  cog=655.3
Mavlink in #33 GPS Int:  ap_lat=47.069274 ap_lon=-0.884089 ap_amsl=19 ap_alt_ag=19.0 ap_vx=0.0 ap_vy=0.0 ap_vz=0.0 ap_hdg=655.3
Mavlink in #24 GPS_RAW_INT: ap_fixtype=3 3D Lock  sats visible=6  GPS status=63  latitude=47.0692736  longitude=-0.8840895  gps alt amsl19  eph (hdop)=0  epv (vdop)=0  vel=655.3  cog=655.3
Mavlink in #0 Heartbeat: ap_type=0  ap_autopilot=8  ap_base_mode=192 ap_custom_mode=0  ap_system_status=4  ap_mavlink_version=3
Mavlink in #33 GPS Int:  ap_lat=47.069274 ap_lon=-0.884090 ap_amsl=19 ap_alt_ag=19.0 ap_vx=0.0 ap_vy=0.0 ap_vz=0.0 ap_hdg=655.3
Mavlink in #24 GPS_RAW_INT: ap_fixtype=3 3D Lock  sats visible=6  GPS status=63  latitude=47.0692736  longitude=-0.8840896  gps alt amsl19  eph (hdop)=0  epv (vdop)=0  vel=655.3  cog=655.3
Mavlink in #0 Heartbeat: ap_type=0  ap_autopilot=8  ap_base_mode=192 ap_custom_mode=0  ap_system_status=4  ap_mavlink_version=3
Mavlink in #33 GPS Int:  ap_lat=47.069274 ap_lon=-0.884089 ap_amsl=19 ap_alt_ag=19.0 ap_vx=0.0 ap_vy=0.0 ap_vz=0.0 ap_hdg=655.3
Mavlink in #24 GPS_RAW_INT: ap_fixtype=3 3D Lock  sats visible=6  GPS status=63  latitude=47.0692736  longitude=-0.8840890  gps alt amsl19  eph (hdop)=0  epv (vdop)=0  vel=655.3  cog=655.3
Mavlink in #0 Heartbeat: ap_type=0  ap_autopilot=8  ap_base_mode=192 ap_custom_mode=0  ap_system_status=4  ap_mavlink_version=3
Mavlink in #33 GPS Int:  ap_lat=47.069274 ap_lon=-0.884089 ap_amsl=18 ap_alt_ag=18.0 ap_vx=0.0 ap_vy=0.0 ap_vz=0.0 ap_hdg=655.3
Mavlink in #24 GPS_RAW_INT: ap_fixtype=3 3D Lock  sats visible=6  GPS status=63  latitude=47.0692736  longitude=-0.8840894  gps alt amsl18  eph (hdop)=0  epv (vdop)=0  vel=655.3  cog=655.3
Mavlink in #0 Heartbeat: ap_type=0  ap_autopilot=8  ap_base_mode=192 ap_custom_mode=0  ap_system_status=4  ap_mavlink_version=3
Mavlink in #33 GPS Int:  ap_lat=47.069274 ap_lon=-0.884090 ap_amsl=18 ap_alt_ag=18.0 ap_vx=0.0 ap_vy=0.0 ap_vz=0.0 ap_hdg=655.3
Mavlink in #24 GPS_RAW_INT: ap_fixtype=3 3D Lock  sats visible=6  GPS status=63  latitude=47.0692736  longitude=-0.8840896  gps alt amsl18  eph (hdop)=0  epv (vdop)=0  vel=655.3  cog=655.3
Mavlink in #33 GPS Int:  ap_lat=47.069274 ap_lon=-0.884090 ap_amsl=18 ap_alt_ag=18.0 ap_vx=0.0 ap_vy=0.0 ap_vz=0.0 ap_hdg=655.3
Mavlink in #24 GPS_RAW_INT: ap_fixtype=3 3D Lock  sats visible=6  GPS status=63  latitude=47.0692736  longitude=-0.8840899  gps alt amsl18  eph (hdop)=0  epv (vdop)=0  vel=655.3  cog=655.3
Mavlink in #0 Heartbeat: ap_type=0  ap_autopilot=8  ap_base_mode=192 ap_custom_mode=0  ap_system_status=4  ap_mavlink_version=3
Mavlink in #33 GPS Int:  ap_lat=47.069274 ap_lon=-0.884090 ap_amsl=18 ap_alt_ag=18.0 ap_vx=0.0 ap_vy=0.0 ap_vz=0.0 ap_hdg=655.3
Mavlink in #24 GPS_RAW_INT: ap_fixtype=3 3D Lock  sats visible=6  GPS status=63  latitude=47.0692736  longitude=-0.8840901  gps alt amsl18  eph (hdop)=0  epv (vdop)=0  vel=655.3  cog=655.3
Mavlink in #0 Heartbeat: ap_type=0  ap_autopilot=8  ap_base_mode=192 ap_custom_mode=0  ap_system_status=4  ap_mavlink_version=3
Mavlink in #33 GPS Int:  ap_lat=47.069274 ap_lon=-0.884089 ap_amsl=18 ap_alt_ag=18.0 ap_vx=0.0 ap_vy=0.0 ap_vz=0.0 ap_hdg=655.3
Mavlink in #24 GPS_RAW_INT: ap_fixtype=3 3D Lock  sats visible=6  GPS status=63  latitude=47.0692736  longitude=-0.8840891  gps alt amsl18  eph (hdop)=0  epv (vdop)=0  vel=655.3  cog=655.3
Mavlink in #0 Heartbeat: ap_type=0  ap_autopilot=8  ap_base_mode=192 ap_custom_mode=0  ap_system_status=4  ap_mavlink_version=3
Mavlink in #33 GPS Int:  ap_lat=47.069274 ap_lon=-0.884091 ap_amsl=18 ap_alt_ag=18.0 ap_vx=0.0 ap_vy=0.0 ap_vz=0.0 ap_hdg=655.3
Mavlink in #24 GPS_RAW_INT: ap_fixtype=3 3D Lock  sats visible=6  GPS status=63  latitude=47.0692736  longitude=-0.8840907  gps alt amsl18  eph (hdop)=0  epv (vdop)=0  vel=655.3  cog=655.3
Mavlink in #0 Heartbeat: ap_type=0  ap_autopilot=8  ap_base_mode=192 ap_custom_mode=0  ap_system_status=4  ap_mavlink_version=3
Mavlink in #33 GPS Int:  ap_lat=47.069274 ap_lon=-0.884090 ap_amsl=18 ap_alt_ag=18.0 ap_vx=0.0 ap_vy=0.0 ap_vz=0.0 ap_hdg=655.3
Mavlink in #24 GPS_RAW_INT: ap_fixtype=3 3D Lock  sats visible=6  GPS status=63  latitude=47.0692736  longitude=-0.8840898  gps alt amsl18  eph (hdop)=0  epv (vdop)=0  vel=655.3  cog=655.3
Mavlink in #33 GPS Int:  ap_lat=47.069274 ap_lon=-0.884090 ap_amsl=18 ap_alt_ag=18.0 ap_vx=0.0 ap_vy=0.0 ap_vz=0.0 ap_hdg=655.3
Mavlink in #24 GPS_RAW_INT: ap_fixtype=3 3D Lock  sats visible=6  GPS status=63  latitude=47.0692736  longitude=-0.8840901  gps alt amsl18  eph (hdop)=0  epv (vdop)=0  vel=655.3  cog=655.3
Mavlink in #0 Heartbeat: ap_type=0  ap_autopilot=8  ap_base_mode=192 ap_custom_mode=0  ap_system_status=4  ap_mavlink_version=3
Mavlink in #33 GPS Int:  ap_lat=47.069274 ap_lon=-0.884091 ap_amsl=18 ap_alt_ag=18.0 ap_vx=0.0 ap_vy=0.0 ap_vz=0.0 ap_hdg=655.3
Mavlink in #24 GPS_RAW_INT: ap_fixtype=3 3D Lock  sats visible=6  GPS status=63  latitude=47.0692736  longitude=-0.8840910  gps alt amsl18  eph (hdop)=0  epv (vdop)=0  vel=655.3  cog=655.3
Mavlink in #0 Heartbeat: ap_type=0  ap_autopilot=8  ap_base_mode=192 ap_custom_mode=0  ap_system_status=4  ap_mavlink_version=3
Mavlink in #33 GPS Int:  ap_lat=47.069274 ap_lon=-0.884090 ap_amsl=18 ap_alt_ag=18.0 ap_vx=0.0 ap_vy=0.0 ap_vz=0.0 ap_hdg=655.3
Mavlink in #24 GPS_RAW_INT: ap_fixtype=3 3D Lock  sats visible=6  GPS status=63  latitude=47.0692736  longitude=-0.8840904  gps alt amsl18  eph (hdop)=0  epv (vdop)=0  vel=655.3  cog=655.3
Mavlink in #0 Heartbeat: ap_type=0  ap_autopilot=8  ap_base_mode=192 ap_custom_mode=0  ap_system_status=4  ap_mavlink_version=3
Mavlink in #33 GPS Int:  ap_lat=47.069274 ap_lon=-0.884091 ap_amsl=18 ap_alt_ag=18.0 ap_vx=0.0 ap_vy=0.0 ap_vz=0.0 ap_hdg=655.3
Mavlink in #24 GPS_RAW_INT: ap_fixtype=3 3D Lock  sats visible=6  GPS status=63  latitude=47.0692736  longitude=-0.8840912  gps alt amsl18  eph (hdop)=0  epv (vdop)=0  vel=655.3  cog=655.3
Mavlink in #0 Heartbeat: ap_type=0  ap_autopilot=8  ap_base_mode=192 ap_custom_mode=0  ap_system_status=4  ap_mavlink_version=3
Mavlink in #33 GPS Int:  ap_lat=47.069274 ap_lon=-0.884090 ap_amsl=19 ap_alt_ag=19.0 ap_vx=0.0 ap_vy=0.0 ap_vz=0.0 ap_hdg=655.3
Mavlink in #24 GPS_RAW_INT: ap_fixtype=3 3D Lock  sats visible=8  GPS status=83  latitude=47.0692736  longitude=-0.8840903  gps alt amsl19  eph (hdop)=0  epv (vdop)=0  vel=655.3  cog=655.3
Mavlink in #33 GPS Int:  ap_lat=47.069274 ap_lon=-0.884092 ap_amsl=19 ap_alt_ag=19.0 ap_vx=0.0 ap_vy=0.0 ap_vz=0.0 ap_hdg=655.3
Mavlink in #24 GPS_RAW_INT: ap_fixtype=3 3D Lock  sats visible=8  GPS status=83  latitude=47.0692736  longitude=-0.8840916  gps alt amsl19  eph (hdop)=0  epv (vdop)=0  vel=655.3  cog=655.3
Mavlink in #0 Heartbeat: ap_type=0  ap_autopilot=8  ap_base_mode=192 ap_custom_mode=0  ap_system_status=4  ap_mavlink_version=3
Mavlink in #33 GPS Int:  ap_lat=47.069270 ap_lon=-0.884090 ap_amsl=19 ap_alt_ag=19.0 ap_vx=0.0 ap_vy=0.0 ap_vz=0.0 ap_hdg=655.3
Mavlink in #24 GPS_RAW_INT: ap_fixtype=3 3D Lock  sats visible=8  GPS status=83  latitude=47.0692704  longitude=-0.8840905  gps alt amsl19  eph (hdop)=0  epv (vdop)=0  vel=655.3  cog=655.3
Mavlink in #0 Heartbeat: ap_type=0  ap_autopilot=8  ap_base_mode=192 ap_custom_mode=0  ap_system_status=4  ap_mavlink_version=3
Mavlink in #33 GPS Int:  ap_lat=47.069270 ap_lon=-0.884089 ap_amsl=19 ap_alt_ag=19.0 ap_vx=0.0 ap_vy=0.0 ap_vz=0.0 ap_hdg=655.3
Mavlink in #24 GPS_RAW_INT: ap_fixtype=3 3D Lock  sats visible=8  GPS status=83  latitude=47.0692704  longitude=-0.8840890  gps alt amsl19  eph (hdop)=0  epv (vdop)=0  vel=655.3  cog=655.3
Mavlink in #0 Heartbeat: ap_type=0  ap_autopilot=8  ap_base_mode=192 ap_custom_mode=0  ap_system_status=4  ap_mavlink_version=3
Mavlink in #33 GPS Int:  ap_lat=47.069267 ap_lon=-0.884089 ap_amsl=19 ap_alt_ag=19.0 ap_vx=0.0 ap_vy=0.0 ap_vz=0.0 ap_hdg=655.3
Mavlink in #24 GPS_RAW_INT: ap_fixtype=3 3D Lock  sats visible=8  GPS status=83  latitude=47.0692672  longitude=-0.8840894  gps alt amsl19  eph (hdop)=0  epv (vdop)=0  vel=655.3  cog=655.3
Mavlink in #0 Heartbeat: ap_type=0  ap_autopilot=8  ap_base_mode=192 ap_custom_mode=0  ap_system_status=4  ap_mavlink_version=3
Mavlink in #33 GPS Int:  ap_lat=47.069267 ap_lon=-0.884089 ap_amsl=19 ap_alt_ag=19.0 ap_vx=0.0 ap_vy=0.0 ap_vz=0.0 ap_hdg=655.3
Mavlink in #24 GPS_RAW_INT: ap_fixtype=3 3D Lock  sats visible=8  GPS status=83  latitude=47.0692672  longitude=-0.8840891  gps alt amsl19  eph (hdop)=0  epv (vdop)=0  vel=655.3  cog=655.3
Mavlink in #33 GPS Int:  ap_lat=47.069264 ap_lon=-0.884089 ap_amsl=19 ap_alt_ag=19.0 ap_vx=0.0 ap_vy=0.0 ap_vz=0.0 ap_hdg=655.3
Mavlink in #24 GPS_RAW_INT: ap_fixtype=3 3D Lock  sats visible=8  GPS status=83  latitude=47.0692640  longitude=-0.8840886  gps alt amsl19  eph (hdop)=0  epv (vdop)=0  vel=655.3  cog=655.3
Mavlink in #0 Heartbeat: ap_type=0  ap_autopilot=8  ap_base_mode=192 ap_custom_mode=0  ap_system_status=4  ap_mavlink_version=3
Mavlink in #33 GPS Int:  ap_lat=47.069264 ap_lon=-0.884089 ap_amsl=19 ap_alt_ag=19.0 ap_vx=0.0 ap_vy=0.0 ap_vz=0.0 ap_hdg=655.3
Mavlink in #24 GPS_RAW_INT: ap_fixtype=3 3D Lock  sats visible=8  GPS status=83  latitude=47.0692640  longitude=-0.8840887  gps alt amsl19  eph (hdop)=0  epv (vdop)=0  vel=655.3  cog=655.3
Mavlink in #0 Heartbeat: ap_type=0  ap_autopilot=8  ap_base_mode=192 ap_custom_mode=0  ap_system_status=4  ap_mavlink_version=3
Mavlink in #33 GPS Int:  ap_lat=47.069264 ap_lon=-0.884090 ap_amsl=19 ap_alt_ag=19.0 ap_vx=0.0 ap_vy=0.0 ap_vz=0.0 ap_hdg=655.3
Mavlink in #24 GPS_RAW_INT: ap_fixtype=3 3D Lock  sats visible=8  GPS status=83  latitude=47.0692640  longitude=-0.8840901  gps alt amsl19  eph (hdop)=0  epv (vdop)=0  vel=655.3  cog=655.3
Mavlink in #0 Heartbeat: ap_type=0  ap_autopilot=8  ap_base_mode=192 ap_custom_mode=0  ap_system_status=4  ap_mavlink_version=3
Mavlink in #33 GPS Int:  ap_lat=47.069261 ap_lon=-0.884090 ap_amsl=19 ap_alt_ag=19.0 ap_vx=0.0 ap_vy=0.0 ap_vz=0.0 ap_hdg=655.3
Mavlink in #24 GPS_RAW_INT: ap_fixtype=3 3D Lock  sats visible=8  GPS status=83  latitude=47.0692608  longitude=-0.8840901  gps alt amsl19  eph (hdop)=0  epv (vdop)=0  vel=655.3  cog=655.3
Mavlink in #0 Heartbeat: ap_type=0  ap_autopilot=8  ap_base_mode=192 ap_custom_mode=0  ap_system_status=4  ap_mavlink_version=3
Mavlink in #33 GPS Int:  ap_lat=47.069261 ap_lon=-0.884091 ap_amsl=19 ap_alt_ag=19.0 ap_vx=0.0 ap_vy=0.0 ap_vz=0.0 ap_hdg=655.3
Mavlink in #24 GPS_RAW_INT: ap_fixtype=3 3D Lock  sats visible=8  GPS status=83  latitude=47.0692608  longitude=-0.8840907  gps alt amsl19  eph (hdop)=0  epv (vdop)=0  vel=655.3  cog=655.3
Mavlink in #33 GPS Int:  ap_lat=47.069261 ap_lon=-0.884090 ap_amsl=19 ap_alt_ag=19.0 ap_vx=0.0 ap_vy=0.0 ap_vz=0.0 ap_hdg=655.3
Mavlink in #24 GPS_RAW_INT: ap_fixtype=3 3D Lock  sats visible=8  GPS status=83  latitude=47.0692608  longitude=-0.8840901  gps alt amsl19  eph (hdop)=0  epv (vdop)=0  vel=655.3  cog=655.3
Mavlink in #0 Heartbeat: ap_type=0  ap_autopilot=8  ap_base_mode=192 ap_custom_mode=0  ap_system_status=4  ap_mavlink_version=3
Mavlink in #33 GPS Int:  ap_lat=47.069254 ap_lon=-0.884089 ap_amsl=19 ap_alt_ag=19.0 ap_vx=0.0 ap_vy=0.0 ap_vz=0.0 ap_hdg=655.3
Mavlink in #24 GPS_RAW_INT: ap_fixtype=3 3D Lock  sats visible=8  GPS status=83  latitude=47.0692544  longitude=-0.8840888  gps alt amsl19  eph (hdop)=0  epv (vdop)=0  vel=655.3  cog=655.3
Mavlink in #0 Heartbeat: ap_type=0  ap_autopilot=8  ap_base_mode=192 ap_custom_mode=0  ap_system_status=4  ap_mavlink_version=3
Mavlink in #33 GPS Int:  ap_lat=47.069254 ap_lon=-0.884064 ap_amsl=43 ap_alt_ag=43.0 ap_vx=0.0 ap_vy=0.0 ap_vz=0.0 ap_hdg=655.3
Mavlink in #24 GPS_RAW_INT: ap_fixtype=3 3D Lock  sats visible=9  GPS status=93  latitude=47.0692544  longitude=-0.8840638  gps alt amsl43  eph (hdop)=0  epv (vdop)=0  vel=655.3  cog=655.3
Mavlink in #0 Heartbeat: ap_type=0  ap_autopilot=8  ap_base_mode=192 ap_custom_mode=0  ap_system_status=4  ap_mavlink_version=3
Mavlink in #33 GPS Int:  ap_lat=47.069254 ap_lon=-0.884042 ap_amsl=44 ap_alt_ag=44.0 ap_vx=0.0 ap_vy=0.0 ap_vz=0.0 ap_hdg=655.3
Mavlink in #24 GPS_RAW_INT: ap_fixtype=3 3D Lock  sats visible=9  GPS status=93  latitude=47.0692544  longitude=-0.8840421  gps alt amsl44  eph (hdop)=0  epv (vdop)=0  vel=655.3  cog=655.3
Mavlink in #0 Heartbeat: ap_type=0  ap_autopilot=8  ap_base_mode=192 ap_custom_mode=0  ap_system_status=4  ap_mavlink_version=3
Mavlink in #33 GPS Int:  ap_lat=47.069254 ap_lon=-0.884020 ap_amsl=45 ap_alt_ag=45.0 ap_vx=0.0 ap_vy=0.0 ap_vz=0.0 ap_hdg=655.3
Mavlink in #24 GPS_RAW_INT: ap_fixtype=3 3D Lock  sats visible=9  GPS status=93  latitude=47.0692544  longitude=-0.8840198  gps alt amsl45  eph (hdop)=0  epv (vdop)=0  vel=655.3  cog=655.3
Mavlink in #33 GPS Int:  ap_lat=47.069254 ap_lon=-0.884008 ap_amsl=46 ap_alt_ag=46.0 ap_vx=0.0 ap_vy=0.0 ap_vz=0.0 ap_hdg=655.3
Mavlink in #24 GPS_RAW_INT: ap_fixtype=3 3D Lock  sats visible=9  GPS status=93  latitude=47.0692544  longitude=-0.8840079  gps alt amsl46  eph (hdop)=0  epv (vdop)=0  vel=655.3  cog=655.3
Mavlink in #0 Heartbeat: ap_type=0  ap_autopilot=8  ap_base_mode=192 ap_custom_mode=0  ap_system_status=4  ap_mavlink_version=3
Mavlink in #33 GPS Int:  ap_lat=47.069251 ap_lon=-0.883991 ap_amsl=46 ap_alt_ag=46.0 ap_vx=0.0 ap_vy=0.0 ap_vz=0.0 ap_hdg=655.3
Mavlink in #24 GPS_RAW_INT: ap_fixtype=3 3D Lock  sats visible=9  GPS status=93  latitude=47.0692512  longitude=-0.8839908  gps alt amsl46  eph (hdop)=0  epv (vdop)=0  vel=655.3  cog=655.3
Mavlink in #0 Heartbeat: ap_type=0  ap_autopilot=8  ap_base_mode=192 ap_custom_mode=0  ap_system_status=4  ap_mavlink_version=3
Mavlink in #33 GPS Int:  ap_lat=47.069251 ap_lon=-0.883980 ap_amsl=47 ap_alt_ag=47.0 ap_vx=0.0 ap_vy=0.0 ap_vz=0.0 ap_hdg=655.3
Mavlink in #24 GPS_RAW_INT: ap_fixtype=3 3D Lock  sats visible=9  GPS status=93  latitude=47.0692512  longitude=-0.8839796  gps alt amsl47  eph (hdop)=0  epv (vdop)=0  vel=655.3  cog=655.3
Mavlink in #0 Heartbeat: ap_type=0  ap_autopilot=8  ap_base_mode=192 ap_custom_mode=0  ap_system_status=4  ap_mavlink_version=3
Mavlink in #33 GPS Int:  ap_lat=47.069251 ap_lon=-0.883974 ap_amsl=47 ap_alt_ag=47.0 ap_vx=0.0 ap_vy=0.0 ap_vz=0.0 ap_hdg=655.3
Mavlink in #24 GPS_RAW_INT: ap_fixtype=3 3D Lock  sats visible=9  GPS status=93  latitude=47.0692512  longitude=-0.8839744  gps alt amsl47  eph (hdop)=0  epv (vdop)=0  vel=655.3  cog=655.3
Mavlink in #0 Heartbeat: ap_type=0  ap_autopilot=8  ap_base_mode=192 ap_custom_mode=0  ap_system_status=4  ap_mavlink_version=3
Mavlink in #33 GPS Int:  ap_lat=47.069254 ap_lon=-0.883964 ap_amsl=47 ap_alt_ag=47.0 ap_vx=0.0 ap_vy=0.0 ap_vz=0.0 ap_hdg=655.3
Mavlink in #24 GPS_RAW_INT: ap_fixtype=3 3D Lock  sats visible=9  GPS status=93  latitude=47.0692544  longitude=-0.8839640  gps alt amsl47  eph (hdop)=0  epv (vdop)=0  vel=655.3  cog=655.3
Mavlink in #33 GPS Int:  ap_lat=47.069254 ap_lon=-0.883954 ap_amsl=48 ap_alt_ag=48.0 ap_vx=0.0 ap_vy=0.0 ap_vz=0.0 ap_hdg=655.3
Mavlink in #24 GPS_RAW_INT: ap_fixtype=3 3D Lock  sats visible=9  GPS status=93  latitude=47.0692544  longitude=-0.8839540  gps alt amsl48  eph (hdop)=0  epv (vdop)=0  vel=655.3  cog=655.3
Mavlink in #0 Heartbeat: ap_type=0  ap_autopilot=8  ap_base_mode=192 ap_custom_mode=0  ap_system_status=4  ap_mavlink_version=3
Mavlink in #33 GPS Int:  ap_lat=47.069254 ap_lon=-0.883944 ap_amsl=48 ap_alt_ag=48.0 ap_vx=0.0 ap_vy=0.0 ap_vz=0.0 ap_hdg=655.3
Mavlink in #24 GPS_RAW_INT: ap_fixtype=3 3D Lock  sats visible=9  GPS status=93  latitude=47.0692544  longitude=-0.8839438  gps alt amsl48  eph (hdop)=0  epv (vdop)=0  vel=655.3  cog=655.3
Mavlink in #0 Heartbeat: ap_type=0  ap_autopilot=8  ap_base_mode=192 ap_custom_mode=0  ap_system_status=4  ap_mavlink_version=3
Mavlink in #33 GPS Int:  ap_lat=47.069254 ap_lon=-0.883936 ap_amsl=49 ap_alt_ag=49.0 ap_vx=0.0 ap_vy=0.0 ap_vz=0.0 ap_hdg=655.3
Mavlink in #24 GPS_RAW_INT: ap_fixtype=3 3D Lock  sats visible=9  GPS status=93  latitude=47.0692544  longitude=-0.8839364  gps alt amsl49  eph (hdop)=0  epv (vdop)=0  vel=655.3  cog=655.3
Mavlink in #0 Heartbeat: ap_type=0  ap_autopilot=8  ap_base_mode=192 ap_custom_mode=0  ap_system_status=4  ap_mavlink_version=3
Mavlink in #33 GPS Int:  ap_lat=47.069254 ap_lon=-0.883930 ap_amsl=49 ap_alt_ag=49.0 ap_vx=0.0 ap_vy=0.0 ap_vz=0.0 ap_hdg=655.3
Mavlink in #24 GPS_RAW_INT: ap_fixtype=3 3D Lock  sats visible=9  GPS status=93  latitude=47.0692544  longitude=-0.8839301  gps alt amsl49  eph (hdop)=0  epv (vdop)=0  vel=655.3  cog=655.3
Mavlink in #0 Heartbeat: ap_type=0  ap_autopilot=8  ap_base_mode=192 ap_custom_mode=0  ap_system_status=4  ap_mavlink_version=3
Mavlink in #33 GPS Int:  ap_lat=47.069254 ap_lon=-0.883924 ap_amsl=49 ap_alt_ag=49.0 ap_vx=0.0 ap_vy=0.0 ap_vz=0.0 ap_hdg=655.3
Mavlink in #24 GPS_RAW_INT: ap_fixtype=3 3D Lock  sats visible=9  GPS status=93  latitude=47.0692544  longitude=-0.8839241  gps alt amsl49  eph (hdop)=0  epv (vdop)=0  vel=655.3  cog=655.3
Mavlink in #33 GPS Int:  ap_lat=47.069254 ap_lon=-0.883918 ap_amsl=49 ap_alt_ag=49.0 ap_vx=0.0 ap_vy=0.0 ap_vz=0.0 ap_hdg=655.3
Mavlink in #24 GPS_RAW_INT: ap_fixtype=3 3D Lock  sats visible=9  GPS status=93  latitude=47.0692544  longitude=-0.8839181  gps alt amsl49  eph (hdop)=0  epv (vdop)=0  vel=655.3  cog=655.3
Mavlink in #0 Heartbeat: ap_type=0  ap_autopilot=8  ap_base_mode=192 ap_custom_mode=0  ap_system_status=4  ap_mavlink_version=3
Mavlink in #33 GPS Int:  ap_lat=47.069254 ap_lon=-0.883912 ap_amsl=50 ap_alt_ag=50.0 ap_vx=0.0 ap_vy=0.0 ap_vz=0.0 ap_hdg=655.3
Mavlink in #24 GPS_RAW_INT: ap_fixtype=3 3D Lock  sats visible=10  GPS status=103  latitude=47.0692544  longitude=-0.8839122  gps alt amsl50  eph (hdop)=0  epv (vdop)=0  vel=655.3  cog=655.3
Mavlink in #0 Heartbeat: ap_type=0  ap_autopilot=8  ap_base_mode=192 ap_custom_mode=0  ap_system_status=4  ap_mavlink_version=3
Mavlink in #33 GPS Int:  ap_lat=47.069251 ap_lon=-0.883915 ap_amsl=83 ap_alt_ag=83.0 ap_vx=0.0 ap_vy=0.0 ap_vz=0.0 ap_hdg=655.3
Mavlink in #24 GPS_RAW_INT: ap_fixtype=3 3D Lock  sats visible=10  GPS status=103  latitude=47.0692512  longitude=-0.8839153  gps alt amsl83  eph (hdop)=0  epv (vdop)=0  vel=655.3  cog=655.3
Mavlink in #0 Heartbeat: ap_type=0  ap_autopilot=8  ap_base_mode=192 ap_custom_mode=0  ap_system_status=4  ap_mavlink_version=3
Mavlink in #33 GPS Int:  ap_lat=47.069248 ap_lon=-0.883917 ap_amsl=82 ap_alt_ag=82.0 ap_vx=0.0 ap_vy=0.0 ap_vz=0.0 ap_hdg=655.3
Mavlink in #24 GPS_RAW_INT: ap_fixtype=3 3D Lock  sats visible=10  GPS status=103  latitude=47.0692480  longitude=-0.8839166  gps alt amsl82  eph (hdop)=0  epv (vdop)=0  vel=655.3  cog=655.3
Mavlink in #0 Heartbeat: ap_type=0  ap_autopilot=8  ap_base_mode=192 ap_custom_mode=0  ap_system_status=4  ap_mavlink_version=3
Mavlink in #33 GPS Int:  ap_lat=47.069248 ap_lon=-0.883918 ap_amsl=82 ap_alt_ag=82.0 ap_vx=0.0 ap_vy=0.0 ap_vz=0.0 ap_hdg=655.3
Mavlink in #24 GPS_RAW_INT: ap_fixtype=3 3D Lock  sats visible=10  GPS status=103  latitude=47.0692480  longitude=-0.8839181  gps alt amsl82  eph (hdop)=0  epv (vdop)=0  vel=655.3  cog=655.3
Mavlink in #33 GPS Int:  ap_lat=47.069245 ap_lon=-0.883920 ap_amsl=82 ap_alt_ag=82.0 ap_vx=0.0 ap_vy=0.0 ap_vz=0.0 ap_hdg=655.3
Mavlink in #24 GPS_RAW_INT: ap_fixtype=3 3D Lock  sats visible=10  GPS status=103  latitude=47.0692448  longitude=-0.8839203  gps alt amsl82  eph (hdop)=0  epv (vdop)=0  vel=655.3  cog=655.3
Mavlink in #0 Heartbeat: ap_type=0  ap_autopilot=8  ap_base_mode=192 ap_custom_mode=0  ap_system_status=4  ap_mavlink_version=3
Mavlink in #33 GPS Int:  ap_lat=47.069242 ap_lon=-0.883922 ap_amsl=81 ap_alt_ag=81.0 ap_vx=0.0 ap_vy=0.0 ap_vz=0.0 ap_hdg=655.3
Mavlink in #24 GPS_RAW_INT: ap_fixtype=3 3D Lock  sats visible=10  GPS status=103  latitude=47.0692416  longitude=-0.8839216  gps alt amsl81  eph (hdop)=0  epv (vdop)=0  vel=655.3  cog=655.3
Mavlink in #0 Heartbeat: ap_type=0  ap_autopilot=8  ap_base_mode=192 ap_custom_mode=0  ap_system_status=4  ap_mavlink_version=3
Mavlink in #33 GPS Int:  ap_lat=47.069235 ap_lon=-0.883922 ap_amsl=81 ap_alt_ag=81.0 ap_vx=0.0 ap_vy=0.0 ap_vz=0.0 ap_hdg=655.3
Mavlink in #24 GPS_RAW_INT: ap_fixtype=3 3D Lock  sats visible=10  GPS status=103  latitude=47.0692352  longitude=-0.8839216  gps alt amsl81  eph (hdop)=0  epv (vdop)=0  vel=655.3  cog=655.3
Mavlink in #0 Heartbeat: ap_type=0  ap_autopilot=8  ap_base_mode=192 ap_custom_mode=0  ap_system_status=4  ap_mavlink_version=3
Mavlink in #33 GPS Int:  ap_lat=47.069235 ap_lon=-0.883922 ap_amsl=81 ap_alt_ag=81.0 ap_vx=0.0 ap_vy=0.0 ap_vz=0.0 ap_hdg=655.3
Mavlink in #24 GPS_RAW_INT: ap_fixtype=3 3D Lock  sats visible=10  GPS status=103  latitude=47.0692352  longitude=-0.8839217  gps alt amsl81  eph (hdop)=0  epv (vdop)=0  vel=655.3  cog=655.3
Mavlink in #0 Heartbeat: ap_type=0  ap_autopilot=8  ap_base_mode=192 ap_custom_mode=0  ap_system_status=4  ap_mavlink_version=3
Mavlink in #33 GPS Int:  ap_lat=47.069235 ap_lon=-0.883923 ap_amsl=81 ap_alt_ag=81.0 ap_vx=0.0 ap_vy=0.0 ap_vz=0.0 ap_hdg=655.3
Mavlink in #24 GPS_RAW_INT: ap_fixtype=3 3D Lock  sats visible=10  GPS status=103  latitude=47.0692352  longitude=-0.8839228  gps alt amsl81  eph (hdop)=0  epv (vdop)=0  vel=655.3  cog=655.3
Mavlink in #33 GPS Int:  ap_lat=47.069235 ap_lon=-0.883924 ap_amsl=81 ap_alt_ag=81.0 ap_vx=0.0 ap_vy=0.0 ap_vz=0.0 ap_hdg=655.3
Mavlink in #24 GPS_RAW_INT: ap_fixtype=3 3D Lock  sats visible=10  GPS status=103  latitude=47.0692352  longitude=-0.8839241  gps alt amsl81  eph (hdop)=0  epv (vdop)=0  vel=655.3  cog=655.3
Mavlink in #0 Heartbeat: ap_type=0  ap_autopilot=8  ap_base_mode=192 ap_custom_mode=0  ap_system_status=4  ap_mavlink_version=3
Mavlink in #33 GPS Int:  ap_lat=47.069232 ap_lon=-0.883924 ap_amsl=80 ap_alt_ag=80.0 ap_vx=0.0 ap_vy=0.0 ap_vz=0.0 ap_hdg=655.3
Mavlink in #24 GPS_RAW_INT: ap_fixtype=3 3D Lock  sats visible=10  GPS status=103  latitude=47.0692320  longitude=-0.8839244  gps alt amsl80  eph (hdop)=0  epv (vdop)=0  vel=655.3  cog=655.3
Mavlink in #0 Heartbeat: ap_type=0  ap_autopilot=8  ap_base_mode=192 ap_custom_mode=0  ap_system_status=4  ap_mavlink_version=3
Mavlink in #33 GPS Int:  ap_lat=47.069229 ap_lon=-0.883926 ap_amsl=80 ap_alt_ag=80.0 ap_vx=0.0 ap_vy=0.0 ap_vz=0.0 ap_hdg=655.3
Mavlink in #24 GPS_RAW_INT: ap_fixtype=3 3D Lock  sats visible=10  GPS status=103  latitude=47.0692288  longitude=-0.8839257  gps alt amsl80  eph (hdop)=0  epv (vdop)=0  vel=655.3  cog=655.3
Mavlink in #0 Heartbeat: ap_type=0  ap_autopilot=8  ap_base_mode=192 ap_custom_mode=0  ap_system_status=4  ap_mavlink_version=3
Mavlink in #33 GPS Int:  ap_lat=47.069229 ap_lon=-0.883927 ap_amsl=80 ap_alt_ag=80.0 ap_vx=0.0 ap_vy=0.0 ap_vz=0.0 ap_hdg=655.3
Mavlink in #24 GPS_RAW_INT: ap_fixtype=3 3D Lock  sats visible=10  GPS status=103  latitude=47.0692288  longitude=-0.8839273  gps alt amsl80  eph (hdop)=0  epv (vdop)=0  vel=655.3  cog=655.3
Mavlink in #0 Heartbeat: ap_type=0  ap_autopilot=8  ap_base_mode=192 ap_custom_mode=0  ap_system_status=4  ap_mavlink_version=3
Mavlink in #33 GPS Int:  ap_lat=47.069229 ap_lon=-0.883928 ap_amsl=80 ap_alt_ag=80.0 ap_vx=0.0 ap_vy=0.0 ap_vz=0.0 ap_hdg=655.3
Mavlink in #24 GPS_RAW_INT: ap_fixtype=3 3D Lock  sats visible=10  GPS status=103  latitude=47.0692288  longitude=-0.8839283  gps alt amsl80  eph (hdop)=0  epv (vdop)=0  vel=655.3  cog=655.3
Mavlink in #33 GPS Int:  ap_lat=47.069226 ap_lon=-0.883929 ap_amsl=80 ap_alt_ag=80.0 ap_vx=0.0 ap_vy=0.0 ap_vz=0.0 ap_hdg=655.3
Mavlink in #24 GPS_RAW_INT: ap_fixtype=3 3D Lock  sats visible=10  GPS status=103  latitude=47.0692256  longitude=-0.8839294  gps alt amsl80  eph (hdop)=0  epv (vdop)=0  vel=655.3  cog=655.3
Mavlink in #0 Heartbeat: ap_type=0  ap_autopilot=8  ap_base_mode=192 ap_custom_mode=0  ap_system_status=4  ap_mavlink_version=3
Mavlink in #33 GPS Int:  ap_lat=47.069226 ap_lon=-0.883931 ap_amsl=79 ap_alt_ag=79.0 ap_vx=0.0 ap_vy=0.0 ap_vz=0.0 ap_hdg=655.3
Mavlink in #24 GPS_RAW_INT: ap_fixtype=3 3D Lock  sats visible=10  GPS status=103  latitude=47.0692256  longitude=-0.8839307  gps alt amsl79  eph (hdop)=0  epv (vdop)=0  vel=655.3  cog=655.3
Mavlink in #0 Heartbeat: ap_type=0  ap_autopilot=8  ap_base_mode=192 ap_custom_mode=0  ap_system_status=4  ap_mavlink_version=3
Mavlink in #33 GPS Int:  ap_lat=47.069226 ap_lon=-0.883933 ap_amsl=79 ap_alt_ag=79.0 ap_vx=0.0 ap_vy=0.0 ap_vz=0.0 ap_hdg=655.3
Mavlink in #24 GPS_RAW_INT: ap_fixtype=3 3D Lock  sats visible=10  GPS status=103  latitude=47.0692256  longitude=-0.8839331  gps alt amsl79  eph (hdop)=0  epv (vdop)=0  vel=655.3  cog=655.3
Mavlink in #0 Heartbeat: ap_type=0  ap_autopilot=8  ap_base_mode=192 ap_custom_mode=0  ap_system_status=4  ap_mavlink_version=3
Mavlink in #33 GPS Int:  ap_lat=47.069222 ap_lon=-0.883935 ap_amsl=79 ap_alt_ag=79.0 ap_vx=0.0 ap_vy=0.0 ap_vz=0.0 ap_hdg=655.3
Mavlink in #24 GPS_RAW_INT: ap_fixtype=3 3D Lock  sats visible=10  GPS status=103  latitude=47.0692224  longitude=-0.8839351  gps alt amsl79  eph (hdop)=0  epv (vdop)=0  vel=655.3  cog=655.3
Mavlink in #0 Heartbeat: ap_type=0  ap_autopilot=8  ap_base_mode=192 ap_custom_mode=0  ap_system_status=4  ap_mavlink_version=3
Mavlink in #33 GPS Int:  ap_lat=47.069222 ap_lon=-0.883937 ap_amsl=79 ap_alt_ag=79.0 ap_vx=0.0 ap_vy=0.0 ap_vz=0.0 ap_hdg=655.3
Mavlink in #24 GPS_RAW_INT: ap_fixtype=3 3D Lock  sats visible=10  GPS status=103  latitude=47.0692224  longitude=-0.8839370  gps alt amsl79  eph (hdop)=0  epv (vdop)=0  vel=655.3  cog=655.3
Mavlink in #33 GPS Int:  ap_lat=47.069222 ap_lon=-0.883939 ap_amsl=78 ap_alt_ag=78.0 ap_vx=0.0 ap_vy=0.0 ap_vz=0.0 ap_hdg=655.3
Mavlink in #24 GPS_RAW_INT: ap_fixtype=3 3D Lock  sats visible=10  GPS status=103  latitude=47.0692224  longitude=-0.8839387  gps alt amsl78  eph (hdop)=0  epv (vdop)=0  vel=655.3  cog=655.3
Mavlink in #0 Heartbeat: ap_type=0  ap_autopilot=8  ap_base_mode=192 ap_custom_mode=0  ap_system_status=4  ap_mavlink_version=3
Mavlink in #33 GPS Int:  ap_lat=47.069219 ap_lon=-0.883941 ap_amsl=78 ap_alt_ag=78.0 ap_vx=0.0 ap_vy=0.0 ap_vz=0.0 ap_hdg=655.3
Mavlink in #24 GPS_RAW_INT: ap_fixtype=3 3D Lock  sats visible=10  GPS status=103  latitude=47.0692192  longitude=-0.8839410  gps alt amsl78  eph (hdop)=0  epv (vdop)=0  vel=655.3  cog=655.3
Mavlink in #0 Heartbeat: ap_type=0  ap_autopilot=8  ap_base_mode=192 ap_custom_mode=0  ap_system_status=4  ap_mavlink_version=3
Mavlink in #33 GPS Int:  ap_lat=47.069219 ap_lon=-0.883943 ap_amsl=78 ap_alt_ag=78.0 ap_vx=0.0 ap_vy=0.0 ap_vz=0.0 ap_hdg=655.3
Mavlink in #24 GPS_RAW_INT: ap_fixtype=3 3D Lock  sats visible=10  GPS status=103  latitude=47.0692192  longitude=-0.8839427  gps alt amsl78  eph (hdop)=0  epv (vdop)=0  vel=655.3  cog=655.3
Mavlink in #0 Heartbeat: ap_type=0  ap_autopilot=8  ap_base_mode=192 ap_custom_mode=0  ap_system_status=4  ap_mavlink_version=3
Mavlink in #33 GPS Int:  ap_lat=47.069219 ap_lon=-0.883945 ap_amsl=78 ap_alt_ag=78.0 ap_vx=0.0 ap_vy=0.0 ap_vz=0.0 ap_hdg=655.3
Mavlink in #24 GPS_RAW_INT: ap_fixtype=3 3D Lock  sats visible=10  GPS status=103  latitude=47.0692192  longitude=-0.8839448  gps alt amsl78  eph (hdop)=0  epv (vdop)=0  vel=655.3  cog=655.3
Mavlink in #0 Heartbeat: ap_type=0  ap_autopilot=8  ap_base_mode=192 ap_custom_mode=0  ap_system_status=4  ap_mavlink_version=3
Mavlink in #33 GPS Int:  ap_lat=47.069219 ap_lon=-0.883947 ap_amsl=78 ap_alt_ag=78.0 ap_vx=0.0 ap_vy=0.0 ap_vz=0.0 ap_hdg=655.3
Mavlink in #24 GPS_RAW_INT: ap_fixtype=3 3D Lock  sats visible=10  GPS status=103  latitude=47.0692192  longitude=-0.8839469  gps alt amsl78  eph (hdop)=0  epv (vdop)=0  vel=655.3  cog=655.3
Mavlink in #33 GPS Int:  ap_lat=47.069219 ap_lon=-0.883948 ap_amsl=77 ap_alt_ag=77.0 ap_vx=0.0 ap_vy=0.0 ap_vz=0.0 ap_hdg=655.3
Mavlink in #24 GPS_RAW_INT: ap_fixtype=3 3D Lock  sats visible=10  GPS status=103  latitude=47.0692192  longitude=-0.8839479  gps alt amsl77  eph (hdop)=0  epv (vdop)=0  vel=655.3  cog=655.3
Mavlink in #0 Heartbeat: ap_type=0  ap_autopilot=8  ap_base_mode=192 ap_custom_mode=0  ap_system_status=4  ap_mavlink_version=3
Mavlink in #33 GPS Int:  ap_lat=47.069219 ap_lon=-0.883949 ap_amsl=77 ap_alt_ag=77.0 ap_vx=0.0 ap_vy=0.0 ap_vz=0.0 ap_hdg=655.3
Mavlink in #24 GPS_RAW_INT: ap_fixtype=3 3D Lock  sats visible=10  GPS status=103  latitude=47.0692192  longitude=-0.8839493  gps alt amsl77  eph (hdop)=0  epv (vdop)=0  vel=655.3  cog=655.3
Mavlink in #0 Heartbeat: ap_type=0  ap_autopilot=8  ap_base_mode=192 ap_custom_mode=0  ap_system_status=4  ap_mavlink_version=3
Mavlink in #33 GPS Int:  ap_lat=47.069219 ap_lon=-0.883951 ap_amsl=77 ap_alt_ag=77.0 ap_vx=0.0 ap_vy=0.0 ap_vz=0.0 ap_hdg=655.3
Mavlink in #24 GPS_RAW_INT: ap_fixtype=3 3D Lock  sats visible=10  GPS status=103  latitude=47.0692192  longitude=-0.8839509  gps alt amsl77  eph (hdop)=0  epv (vdop)=0  vel=655.3  cog=655.3
Mavlink in #0 Heartbeat: ap_type=0  ap_autopilot=8  ap_base_mode=192 ap_custom_mode=0  ap_system_status=4  ap_mavlink_version=3
Mavlink in #33 GPS Int:  ap_lat=47.069219 ap_lon=-0.883952 ap_amsl=77 ap_alt_ag=77.0 ap_vx=0.0 ap_vy=0.0 ap_vz=0.0 ap_hdg=655.3
Mavlink in #24 GPS_RAW_INT: ap_fixtype=3 3D Lock  sats visible=10  GPS status=103  latitude=47.0692192  longitude=-0.8839521  gps alt amsl77  eph (hdop)=0  epv (vdop)=0  vel=655.3  cog=655.3
Mavlink in #0 Heartbeat: ap_type=0  ap_autopilot=8  ap_base_mode=192 ap_custom_mode=0  ap_system_status=4  ap_mavlink_version=3
Mavlink in #33 GPS Int:  ap_lat=47.069213 ap_lon=-0.883953 ap_amsl=77 ap_alt_ag=77.0 ap_vx=0.0 ap_vy=0.0 ap_vz=0.0 ap_hdg=655.3
Mavlink in #24 GPS_RAW_INT: ap_fixtype=3 3D Lock  sats visible=10  GPS status=103  latitude=47.0692128  longitude=-0.8839526  gps alt amsl77  eph (hdop)=0  epv (vdop)=0  vel=655.3  cog=655.3
Mavlink in #33 GPS Int:  ap_lat=47.069213 ap_lon=-0.883952 ap_amsl=77 ap_alt_ag=77.0 ap_vx=0.0 ap_vy=0.0 ap_vz=0.0 ap_hdg=655.3
Mavlink in #24 GPS_RAW_INT: ap_fixtype=3 3D Lock  sats visible=10  GPS status=103  latitude=47.0692128  longitude=-0.8839523  gps alt amsl77  eph (hdop)=0  epv (vdop)=0  vel=655.3  cog=655.3
Mavlink in #0 Heartbeat: ap_type=0  ap_autopilot=8  ap_base_mode=192 ap_custom_mode=0  ap_system_status=4  ap_mavlink_version=3
Mavlink in #33 GPS Int:  ap_lat=47.069213 ap_lon=-0.883952 ap_amsl=77 ap_alt_ag=77.0 ap_vx=0.0 ap_vy=0.0 ap_vz=0.0 ap_hdg=655.3
Mavlink in #24 GPS_RAW_INT: ap_fixtype=3 3D Lock  sats visible=10  GPS status=103  latitude=47.0692128  longitude=-0.8839520  gps alt amsl77  eph (hdop)=0  epv (vdop)=0  vel=655.3  cog=655.3
Mavlink in #0 Heartbeat: ap_type=0  ap_autopilot=8  ap_base_mode=192 ap_custom_mode=0  ap_system_status=4  ap_mavlink_version=3
Mavlink in #33 GPS Int:  ap_lat=47.069210 ap_lon=-0.883952 ap_amsl=77 ap_alt_ag=77.0 ap_vx=0.0 ap_vy=0.0 ap_vz=0.0 ap_hdg=655.3
Mavlink in #24 GPS_RAW_INT: ap_fixtype=3 3D Lock  sats visible=10  GPS status=103  latitude=47.0692096  longitude=-0.8839520  gps alt amsl77  eph (hdop)=0  epv (vdop)=0  vel=655.3  cog=655.3
Mavlink in #0 Heartbeat: ap_type=0  ap_autopilot=8  ap_base_mode=192 ap_custom_mode=0  ap_system_status=4  ap_mavlink_version=3
Mavlink in #33 GPS Int:  ap_lat=47.069210 ap_lon=-0.883952 ap_amsl=77 ap_alt_ag=77.0 ap_vx=0.0 ap_vy=0.0 ap_vz=0.0 ap_hdg=655.3
Mavlink in #24 GPS_RAW_INT: ap_fixtype=3 3D Lock  sats visible=10  GPS status=103  latitude=47.0692096  longitude=-0.8839516  gps alt amsl77  eph (hdop)=0  epv (vdop)=0  vel=655.3  cog=655.3
Mavlink in #0 Heartbeat: ap_type=0  ap_autopilot=8  ap_base_mode=192 ap_custom_mode=0  ap_system_status=4  ap_mavlink_version=3
Mavlink in #33 GPS Int:  ap_lat=47.069210 ap_lon=-0.883951 ap_amsl=77 ap_alt_ag=77.0 ap_vx=0.0 ap_vy=0.0 ap_vz=0.0 ap_hdg=655.3
Mavlink in #24 GPS_RAW_INT: ap_fixtype=3 3D Lock  sats visible=10  GPS status=103  latitude=47.0692096  longitude=-0.8839514  gps alt amsl77  eph (hdop)=0  epv (vdop)=0  vel=655.3  cog=655.3
Mavlink in #33 GPS Int:  ap_lat=47.069206 ap_lon=-0.883952 ap_amsl=76 ap_alt_ag=76.0 ap_vx=0.0 ap_vy=0.0 ap_vz=0.0 ap_hdg=655.3
Mavlink in #24 GPS_RAW_INT: ap_fixtype=3 3D Lock  sats visible=10  GPS status=103  latitude=47.0692064  longitude=-0.8839516  gps alt amsl76  eph (hdop)=0  epv (vdop)=0  vel=655.3  cog=655.3
Mavlink in #0 Heartbeat: ap_type=0  ap_autopilot=8  ap_base_mode=192 ap_custom_mode=0  ap_system_status=4  ap_mavlink_version=3
Mavlink in #33 GPS Int:  ap_lat=47.069206 ap_lon=-0.883951 ap_amsl=76 ap_alt_ag=76.0 ap_vx=0.0 ap_vy=0.0 ap_vz=0.0 ap_hdg=655.3
Mavlink in #24 GPS_RAW_INT: ap_fixtype=3 3D Lock  sats visible=10  GPS status=103  latitude=47.0692064  longitude=-0.8839510  gps alt amsl76  eph (hdop)=0  epv (vdop)=0  vel=655.3  cog=655.3
Mavlink in #0 Heartbeat: ap_type=0  ap_autopilot=8  ap_base_mode=192 ap_custom_mode=0  ap_system_status=4  ap_mavlink_version=3
Mavlink in #33 GPS Int:  ap_lat=47.069203 ap_lon=-0.883951 ap_amsl=76 ap_alt_ag=76.0 ap_vx=0.0 ap_vy=0.0 ap_vz=0.0 ap_hdg=655.3
Mavlink in #24 GPS_RAW_INT: ap_fixtype=3 3D Lock  sats visible=10  GPS status=103  latitude=47.0692032  longitude=-0.8839506  gps alt amsl76  eph (hdop)=0  epv (vdop)=0  vel=655.3  cog=655.3
Mavlink in #0 Heartbeat: ap_type=0  ap_autopilot=8  ap_base_mode=192 ap_custom_mode=0  ap_system_status=4  ap_mavlink_version=3
Mavlink in #33 GPS Int:  ap_lat=47.069203 ap_lon=-0.883950 ap_amsl=76 ap_alt_ag=76.0 ap_vx=0.0 ap_vy=0.0 ap_vz=0.0 ap_hdg=655.3
Mavlink in #24 GPS_RAW_INT: ap_fixtype=3 3D Lock  sats visible=10  GPS status=103  latitude=47.0692032  longitude=-0.8839498  gps alt amsl76  eph (hdop)=0  epv (vdop)=0  vel=655.3  cog=655.3
Mavlink in #0 Heartbeat: ap_type=0  ap_autopilot=8  ap_base_mode=192 ap_custom_mode=0  ap_system_status=4  ap_mavlink_version=3
Mavlink in #33 GPS Int:  ap_lat=47.069200 ap_lon=-0.883949 ap_amsl=76 ap_alt_ag=76.0 ap_vx=0.0 ap_vy=0.0 ap_vz=0.0 ap_hdg=655.3
Mavlink in #24 GPS_RAW_INT: ap_fixtype=3 3D Lock  sats visible=10  GPS status=103  latitude=47.0692000  longitude=-0.8839494  gps alt amsl76  eph (hdop)=0  epv (vdop)=0  vel=655.3  cog=655.3
Mavlink in #33 GPS Int:  ap_lat=47.069200 ap_lon=-0.883949 ap_amsl=76 ap_alt_ag=76.0 ap_vx=0.0 ap_vy=0.0 ap_vz=0.0 ap_hdg=655.3
Mavlink in #24 GPS_RAW_INT: ap_fixtype=3 3D Lock  sats visible=10  GPS status=103  latitude=47.0692000  longitude=-0.8839489  gps alt amsl76  eph (hdop)=0  epv (vdop)=0  vel=655.3  cog=655.3
Mavlink in #0 Heartbeat: ap_type=0  ap_autopilot=8  ap_base_mode=192 ap_custom_mode=0  ap_system_status=4  ap_mavlink_version=3
Mavlink in #33 GPS Int:  ap_lat=47.069200 ap_lon=-0.883949 ap_amsl=76 ap_alt_ag=76.0 ap_vx=0.0 ap_vy=0.0 ap_vz=0.0 ap_hdg=655.3
Mavlink in #24 GPS_RAW_INT: ap_fixtype=3 3D Lock  sats visible=10  GPS status=103  latitude=47.0692000  longitude=-0.8839493  gps alt amsl76  eph (hdop)=0  epv (vdop)=0  vel=655.3  cog=655.3
Mavlink in #0 Heartbeat: ap_type=0  ap_autopilot=8  ap_base_mode=192 ap_custom_mode=0  ap_system_status=4  ap_mavlink_version=3
Mavlink in #33 GPS Int:  ap_lat=47.069200 ap_lon=-0.883950 ap_amsl=76 ap_alt_ag=76.0 ap_vx=0.0 ap_vy=0.0 ap_vz=0.0 ap_hdg=655.3
Mavlink in #24 GPS_RAW_INT: ap_fixtype=3 3D Lock  sats visible=10  GPS status=103  latitude=47.0692000  longitude=-0.8839495  gps alt amsl76  eph (hdop)=0  epv (vdop)=0  vel=655.3  cog=655.3
Mavlink in #0 Heartbeat: ap_type=0  ap_autopilot=8  ap_base_mode=192 ap_custom_mode=0  ap_system_status=4  ap_mavlink_version=3
Mavlink in #33 GPS Int:  ap_lat=47.069200 ap_lon=-0.883950 ap_amsl=76 ap_alt_ag=76.0 ap_vx=0.0 ap_vy=0.0 ap_vz=0.0 ap_hdg=655.3
Mavlink in #24 GPS_RAW_INT: ap_fixtype=3 3D Lock  sats visible=10  GPS status=103  latitude=47.0692000  longitude=-0.8839505  gps alt amsl76  eph (hdop)=0  epv (vdop)=0  vel=655.3  cog=655.3
Mavlink in #0 Heartbeat: ap_type=0  ap_autopilot=8  ap_base_mode=192 ap_custom_mode=0  ap_system_status=4  ap_mavlink_version=3
Mavlink in #33 GPS Int:  ap_lat=47.069200 ap_lon=-0.883950 ap_amsl=76 ap_alt_ag=76.0 ap_vx=0.0 ap_vy=0.0 ap_vz=0.0 ap_hdg=655.3
Mavlink in #24 GPS_RAW_INT: ap_fixtype=3 3D Lock  sats visible=10  GPS status=103  latitude=47.0692000  longitude=-0.8839501  gps alt amsl76  eph (hdop)=0  epv (vdop)=0  vel=655.3  cog=655.3
Mavlink in #33 GPS Int:  ap_lat=47.069200 ap_lon=-0.883949 ap_amsl=76 ap_alt_ag=76.0 ap_vx=0.0 ap_vy=0.0 ap_vz=0.0 ap_hdg=655.3
Mavlink in #24 GPS_RAW_INT: ap_fixtype=3 3D Lock  sats visible=10  GPS status=103  latitude=47.0692000  longitude=-0.8839488  gps alt amsl76  eph (hdop)=0  epv (vdop)=0  vel=655.3  cog=655.3
Mavlink in #0 Heartbeat: ap_type=0  ap_autopilot=8  ap_base_mode=192 ap_custom_mode=0  ap_system_status=4  ap_mavlink_version=3
Mavlink in #33 GPS Int:  ap_lat=47.069200 ap_lon=-0.883948 ap_amsl=76 ap_alt_ag=76.0 ap_vx=0.0 ap_vy=0.0 ap_vz=0.0 ap_hdg=655.3
Mavlink in #24 GPS_RAW_INT: ap_fixtype=3 3D Lock  sats visible=10  GPS status=103  latitude=47.0692000  longitude=-0.8839481  gps alt amsl76  eph (hdop)=0  epv (vdop)=0  vel=655.3  cog=655.3
Mavlink in #0 Heartbeat: ap_type=0  ap_autopilot=8  ap_base_mode=192 ap_custom_mode=0  ap_system_status=4  ap_mavlink_version=3
Mavlink in #33 GPS Int:  ap_lat=47.069194 ap_lon=-0.883947 ap_amsl=76 ap_alt_ag=76.0 ap_vx=0.0 ap_vy=0.0 ap_vz=0.0 ap_hdg=655.3
Mavlink in #24 GPS_RAW_INT: ap_fixtype=3 3D Lock  sats visible=10  GPS status=103  latitude=47.0691936  longitude=-0.8839470  gps alt amsl76  eph (hdop)=0  epv (vdop)=0  vel=655.3  cog=655.3
Mavlink in #0 Heartbeat: ap_type=0  ap_autopilot=8  ap_base_mode=192 ap_custom_mode=0  ap_system_status=4  ap_mavlink_version=3
Mavlink in #33 GPS Int:  ap_lat=47.069194 ap_lon=-0.883947 ap_amsl=76 ap_alt_ag=76.0 ap_vx=0.0 ap_vy=0.0 ap_vz=0.0 ap_hdg=655.3
Mavlink in #24 GPS_RAW_INT: ap_fixtype=3 3D Lock  sats visible=10  GPS status=103  latitude=47.0691936  longitude=-0.8839468  gps alt amsl76  eph (hdop)=0  epv (vdop)=0  vel=655.3  cog=655.3
Mavlink in #0 Heartbeat: ap_type=0  ap_autopilot=8  ap_base_mode=192 ap_custom_mode=0  ap_system_status=4  ap_mavlink_version=3
Mavlink in #33 GPS Int:  ap_lat=47.069194 ap_lon=-0.883946 ap_amsl=76 ap_alt_ag=76.0 ap_vx=0.0 ap_vy=0.0 ap_vz=0.0 ap_hdg=655.3
Mavlink in #24 GPS_RAW_INT: ap_fixtype=3 3D Lock  sats visible=10  GPS status=103  latitude=47.0691936  longitude=-0.8839465  gps alt amsl76  eph (hdop)=0  epv (vdop)=0  vel=655.3  cog=655.3
Mavlink in #33 GPS Int:  ap_lat=47.069190 ap_lon=-0.883946 ap_amsl=76 ap_alt_ag=76.0 ap_vx=0.0 ap_vy=0.0 ap_vz=0.0 ap_hdg=655.3
Mavlink in #24 GPS_RAW_INT: ap_fixtype=3 3D Lock  sats visible=10  GPS status=103  latitude=47.0691904  longitude=-0.8839463  gps alt amsl76  eph (hdop)=0  epv (vdop)=0  vel=655.3  cog=655.3
Mavlink in #0 Heartbeat: ap_type=0  ap_autopilot=8  ap_base_mode=192 ap_custom_mode=0  ap_system_status=4  ap_mavlink_version=3
Mavlink in #33 GPS Int:  ap_lat=47.069190 ap_lon=-0.883947 ap_amsl=76 ap_alt_ag=76.0 ap_vx=0.0 ap_vy=0.0 ap_vz=0.0 ap_hdg=655.3
Mavlink in #24 GPS_RAW_INT: ap_fixtype=3 3D Lock  sats visible=10  GPS status=103  latitude=47.0691904  longitude=-0.8839468  gps alt amsl76  eph (hdop)=0  epv (vdop)=0  vel=655.3  cog=655.3
Mavlink in #0 Heartbeat: ap_type=0  ap_autopilot=8  ap_base_mode=192 ap_custom_mode=0  ap_system_status=4  ap_mavlink_version=3
Mavlink in #33 GPS Int:  ap_lat=47.069190 ap_lon=-0.883947 ap_amsl=76 ap_alt_ag=76.0 ap_vx=0.0 ap_vy=0.0 ap_vz=0.0 ap_hdg=655.3
Mavlink in #24 GPS_RAW_INT: ap_fixtype=3 3D Lock  sats visible=10  GPS status=103  latitude=47.0691904  longitude=-0.8839470  gps alt amsl76  eph (hdop)=0  epv (vdop)=0  vel=655.3  cog=655.3
Mavlink in #0 Heartbeat: ap_type=0  ap_autopilot=8  ap_base_mode=192 ap_custom_mode=0  ap_system_status=4  ap_mavlink_version=3
Mavlink in #33 GPS Int:  ap_lat=47.069190 ap_lon=-0.883946 ap_amsl=76 ap_alt_ag=76.0 ap_vx=0.0 ap_vy=0.0 ap_vz=0.0 ap_hdg=655.3
Mavlink in #24 GPS_RAW_INT: ap_fixtype=3 3D Lock  sats visible=10  GPS status=103  latitude=47.0691904  longitude=-0.8839461  gps alt amsl76  eph (hdop)=0  epv (vdop)=0  vel=655.3  cog=655.3
Mavlink in #0 Heartbeat: ap_type=0  ap_autopilot=8  ap_base_mode=192 ap_custom_mode=0  ap_system_status=4  ap_mavlink_version=3
Mavlink in #33 GPS Int:  ap_lat=47.069187 ap_lon=-0.883946 ap_amsl=76 ap_alt_ag=76.0 ap_vx=0.0 ap_vy=0.0 ap_vz=0.0 ap_hdg=655.3
Mavlink in #24 GPS_RAW_INT: ap_fixtype=3 3D Lock  sats visible=10  GPS status=103  latitude=47.0691872  longitude=-0.8839459  gps alt amsl76  eph (hdop)=0  epv (vdop)=0  vel=655.3  cog=655.3
Mavlink in #33 GPS Int:  ap_lat=47.069187 ap_lon=-0.883946 ap_amsl=76 ap_alt_ag=76.0 ap_vx=0.0 ap_vy=0.0 ap_vz=0.0 ap_hdg=655.3
Mavlink in #24 GPS_RAW_INT: ap_fixtype=3 3D Lock  sats visible=10  GPS status=103  latitude=47.0691872  longitude=-0.8839458  gps alt amsl76  eph (hdop)=0  epv (vdop)=0  vel=655.3  cog=655.3
Mavlink in #0 Heartbeat: ap_type=0  ap_autopilot=8  ap_base_mode=192 ap_custom_mode=0  ap_system_status=4  ap_mavlink_version=3
Mavlink in #33 GPS Int:  ap_lat=47.069187 ap_lon=-0.883945 ap_amsl=76 ap_alt_ag=76.0 ap_vx=0.0 ap_vy=0.0 ap_vz=0.0 ap_hdg=655.3
Mavlink in #24 GPS_RAW_INT: ap_fixtype=3 3D Lock  sats visible=10  GPS status=103  latitude=47.0691872  longitude=-0.8839454  gps alt amsl76  eph (hdop)=0  epv (vdop)=0  vel=655.3  cog=655.3
Mavlink in #0 Heartbeat: ap_type=0  ap_autopilot=8  ap_base_mode=192 ap_custom_mode=0  ap_system_status=4  ap_mavlink_version=3
Mavlink in #33 GPS Int:  ap_lat=47.069187 ap_lon=-0.883945 ap_amsl=76 ap_alt_ag=76.0 ap_vx=0.0 ap_vy=0.0 ap_vz=0.0 ap_hdg=655.3
Mavlink in #24 GPS_RAW_INT: ap_fixtype=3 3D Lock  sats visible=10  GPS status=103  latitude=47.0691872  longitude=-0.8839452  gps alt amsl76  eph (hdop)=0  epv (vdop)=0  vel=655.3  cog=655.3
Mavlink in #0 Heartbeat: ap_type=0  ap_autopilot=8  ap_base_mode=192 ap_custom_mode=0  ap_system_status=4  ap_mavlink_version=3
Mavlink in #33 GPS Int:  ap_lat=47.069187 ap_lon=-0.883946 ap_amsl=76 ap_alt_ag=76.0 ap_vx=0.0 ap_vy=0.0 ap_vz=0.0 ap_hdg=655.3
Mavlink in #24 GPS_RAW_INT: ap_fixtype=3 3D Lock  sats visible=10  GPS status=103  latitude=47.0691872  longitude=-0.8839456  gps alt amsl76  eph (hdop)=0  epv (vdop)=0  vel=655.3  cog=655.3
Mavlink in #0 Heartbeat: ap_type=0  ap_autopilot=8  ap_base_mode=192 ap_custom_mode=0  ap_system_status=4  ap_mavlink_version=3
Mavlink in #33 GPS Int:  ap_lat=47.069187 ap_lon=-0.883946 ap_amsl=76 ap_alt_ag=76.0 ap_vx=0.0 ap_vy=0.0 ap_vz=0.0 ap_hdg=655.3
